{"cities": [
  {"coords": {"lat": "52.56667", "lon": "103.91667"},
    "district": "Сибирский",
    "name": "Ангарск",
    "population": 221296,
    "subject": "Иркутская область"},
  {"coords": {"lat": "64.55", "lon": "40.53333"},
    "district": "Северо-Западный",
    "name": "Архангельск",
    "population": 301199,
    "subject": "Архангельская область"},
  {"coords": {"lat": "46.33333", "lon": "48.03333"},
    "district": "Южный",
    "name": "Астрахань",
    "population": 475629,
    "subject": "Астраханская область"},
  {"coords": {"lat": "55.8", "lon": "37.93333"},
    "district": "Центральный",
    "name": "Балашиха",
    "population": 520962,
    "subject": "Московская область"},
  {"coords": {"lat": "53.347361", "lon": "83.77833"},
    "district": "Сибирский",
    "name": "Барнаул",
    "population": 630877,
    "subject": "Алтайский край"},
  {"coords": {"lat": "50.6", "lon": "36.6"},
    "district": "Центральный",
    "name": "Белгород",
    "population": 339978,
    "subject": "Белгородская область"},
  {"coords": {"lat": "50.25778", "lon": "127.53639"},
    "district": "Дальневосточный",
    "name": "Благовещенск",
    "population": 241437,
    "subject": "Амурская область"},
  {"coords": {"lat": "56.152", "lon": "101.633"},
    "district": "Сибирский",
    "name": "Братск",
    "population": 224071,
    "subject": "Иркутская область"},
  {"coords": {"lat": "53.25", "lon": "34.36667"},
    "district": "Центральный",
    "name": "Брянск",
    "population": 379152,
    "subject": "Брянская область"},
  {"coords": {"lat": "58.525", "lon": "31.275"},
    "district": "Северо-Западный",
    "name": "Великий Новгород",
    "population": 224286,
    "subject": "Новгородская область"},
  {"coords": {"lat": "43.116666666667", "lon": "131.9"},
    "district": "Дальневосточный",
    "name": "Владивосток",
    "population": 603519,
    "subject": "Приморский край"},
  {"coords": {"lat": "43.01667", "lon": "44.683315"},
    "district": "Северо-Кавказский",
    "name": "Владикавказ",
    "population": 295830,
    "subject": "Северная Осетия"},
  {"coords": {"lat": "56.13333", "lon": "40.41667"},
    "district": "Центральный",
    "name": "Владимир",
    "population": 349951,
    "subject": "Владимирская область"},
  {"coords": {"lat": "48.71167", "lon": "44.51389"},
    "district": "Южный",
    "name": "Волгоград",
    "population": 1028036,
    "subject": "Волгоградская область"},
  {"coords": {"lat": "48.783333333333", "lon": "44.766666666667"},
    "district": "Южный",
    "name": "Волжский",
    "population": 321479,
    "subject": "Волгоградская область"},
  {"coords": {"lat": "59.216666666667", "lon": "39.9"},
    "district": "Северо-Западный",
    "name": "Вологда",
    "population": 313944,
    "subject": "Вологодская область"},
  {"coords": {"lat": "51.67167", "lon": "39.21056"},
    "district": "Центральный",
    "name": "Воронеж",
    "population": 1057681,
    "subject": "Воронежская область"},
  {"coords": {"lat": "43.31667", "lon": "45.7"},
    "district": "Северо-Кавказский",
    "name": "Грозный",
    "population": 328533,
    "subject": "Чечня"},
  {"coords": {"lat": "56.23333", "lon": "43.45"},
    "district": "Приволжский",
    "name": "Дзержинск",
    "population": 218630,
    "subject": "Нижегородская область"},
  {"coords": {"lat": "56.83333", "lon": "60.58333"},
    "district": "Уральский",
    "name": "Екатеринбург",
    "population": 1544376,
    "subject": "Свердловская область"},
  {"coords": {"lat": "55.997917", "lon": "37.190417"},
    "district": "Центральный",
    "name": "Зеленоград",
    "population": 256775,
    "subject": "Москва"},
  {"coords": {"lat": "56.99667", "lon": "40.98194"},
    "district": "Центральный",
    "name": "Иваново",
    "population": 361644,
    "subject": "Ивановская область"},
  {"coords": {"lat": "56.85306", "lon": "53.21222"},
    "district": "Приволжский",
    "name": "Ижевск",
    "population": 623472,
    "subject": "Удмуртия"},
  {"coords": {"lat": "52.28333", "lon": "104.3"},
    "district": "Сибирский",
    "name": "Иркутск",
    "population": 617264,
    "subject": "Иркутская область"},
  {"coords": {"lat": "56.632777777778", "lon": "47.895833333333"},
    "district": "Приволжский",
    "name": "Йошкар-Ола",
    "population": 281248,
    "subject": "Марий Эл"},
  {"coords": {"lat": "55.79083", "lon": "49.11444"},
    "district": "Приволжский",
    "name": "Казань",
    "population": 1308660,
    "subject": "Татарстан"},
  {"coords": {"lat": "54.71667", "lon": "20.5"},
    "district": "Северо-Западный",
    "name": "Калининград",
    "population": 490449,
    "subject": "Калининградская область"},
  {"coords": {"lat": "54.53333", "lon": "36.26667"},
    "district": "Центральный",
    "name": "Калуга",
    "population": 337058,
    "subject": "Калужская область"},
  {"coords": {"lat": "55.35417", "lon": "86.08972"},
    "district": "Сибирский",
    "name": "Кемерово",
    "population": 557119,
    "subject": "Кемеровская область"},
  {"coords": {"lat": "58.6", "lon": "49.65"},
    "district": "Приволжский",
    "name": "Киров",
    "population": 468212,
    "subject": "Кировская область"},
  {"coords": {"lat": "50.55", "lon": "137"},
    "district": "Дальневосточный",
    "name": "Комсомольск-на-Амуре",
    "population": 238505,
    "subject": "Хабаровский край"},
  {"coords": {"lat": "55.91667", "lon": "37.81667"},
    "district": "Центральный",
    "name": "Королёв",
    "population": 228095,
    "subject": "Московская область"},
  {"coords": {"lat": "57.76667", "lon": "40.93333"},
    "district": "Центральный",
    "name": "Кострома",
    "population": 267481,
    "subject": "Костромская область"},
  {"coords": {"lat": "45.03333", "lon": "38.98333"},
    "district": "Южный",
    "name": "Краснодар",
    "population": 1099344,
    "subject": "Краснодарский край"},
  {"coords": {"lat": "56.012083", "lon": "92.871295"},
    "district": "Сибирский",
    "name": "Красноярск",
    "population": 1187771,
    "subject": "Красноярский край"},
  {"coords": {"lat": "55.44083", "lon": "65.34111"},
    "district": "Уральский",
    "name": "Курган",
    "population": 310911,
    "subject": "Курганская область"},
  {"coords": {"lat": "51.71667", "lon": "36.18333"},
    "district": "Центральный",
    "name": "Курск",
    "population": 440052,
    "subject": "Курская область"},
  {"coords": {"lat": "52.61667", "lon": "39.6"},
    "district": "Центральный",
    "name": "Липецк",
    "population": 496403,
    "subject": "Липецкая область"},
  {"coords": {"lat": "55.68139", "lon": "37.89389"},
    "district": "Центральный",
    "name": "Люберцы",
    "population": 224195,
    "subject": "Московская область"},
  {"coords": {"lat": "53.38333", "lon": "59.03333"},
    "district": "Уральский",
    "name": "Магнитогорск",
    "population": 410594,
    "subject": "Челябинская область"},
  {"coords": {"lat": "42.98333", "lon": "47.5"},
    "district": "Северо-Кавказский",
    "name": "Махачкала",
    "population": 623254,
    "subject": "Дагестан"},
  {"coords": {"lat": "55.755833333333", "lon": "37.617777777778"},
    "district": "Центральный",
    "name": "Москва",
    "population": 13010112,
    "subject": "Москва"},
  {"coords": {"lat": "68.96667", "lon": "33.08333"},
    "district": "Северо-Западный",
    "name": "Мурманск",
    "population": 270384,
    "subject": "Мурманская область"},
  {"coords": {"lat": "55.91667", "lon": "37.73333"},
    "district": "Центральный",
    "name": "Мытищи",
    "population": 255429,
    "subject": "Московская область"},
  {"coords": {"lat": "55.7", "lon": "52.33333"},
    "district": "Приволжский",
    "name": "Набережные Челны",
    "population": 548434,
    "subject": "Татарстан"},
  {"coords": {"lat": "43.485259", "lon": "43.607072"},
    "district": "Северо-Кавказский",
    "name": "Нальчик",
    "population": 247054,
    "subject": "Кабардино-Балкария"},
  {"coords": {"lat": "60.93389", "lon": "76.58111"},
    "district": "Уральский",
    "name": "Нижневартовск",
    "population": 283256,
    "subject": "Ханты-Мансийский АО"},
  {"coords": {"lat": "55.63333", "lon": "51.81667"},
    "district": "Приволжский",
    "name": "Нижнекамск",
    "population": 241479,
    "subject": "Татарстан"},
  {"coords": {"lat": "56.32694", "lon": "44.0075"},
    "district": "Приволжский",
    "name": "Нижний Новгород",
    "population": 1226076,
    "subject": "Нижегородская область"},
  {"coords": {"lat": "57.91667", "lon": "59.96667"},
    "district": "Уральский",
    "name": "Нижний Тагил",
    "population": 338966,
    "subject": "Свердловская область"},
  {"coords": {"lat": "53.73333", "lon": "87.08333"},
    "district": "Сибирский",
    "name": "Новокузнецк",
    "population": 537480,
    "subject": "Кемеровская область"},
  {"coords": {"lat": "44.71667", "lon": "37.76667"},
    "district": "Южный",
    "name": "Новороссийск",
    "population": 262293,
    "subject": "Краснодарский край"},
  {"coords": {"lat": "55.01667", "lon": "82.91667"},
    "district": "Сибирский",
    "name": "Новосибирск",
    "population": 1633595,
    "subject": "Новосибирская область"},
  {"coords": {"lat": "54.96667", "lon": "73.38333"},
    "district": "Сибирский",
    "name": "Омск",
    "population": 1125695,
    "subject": "Омская область"},
  {"coords": {"lat": "51.76667", "lon": "55.1"},
    "district": "Приволжский",
    "name": "Оренбург",
    "population": 543654,
    "subject": "Оренбургская область"},
  {"coords": {"lat": "52.96667", "lon": "36.08333"},
    "district": "Центральный",
    "name": "Орёл",
    "population": 303169,
    "subject": "Орловская область"},
  {"coords": {"lat": "53.2", "lon": "45"},
    "district": "Приволжский",
    "name": "Пенза",
    "population": 501109,
    "subject": "Пензенская область"},
  {"coords": {"lat": "58.01389", "lon": "56.24889"},
    "district": "Приволжский",
    "name": "Пермь",
    "population": 1034002,
    "subject": "Пермский край"},
  {"coords": {"lat": "61.79611", "lon": "34.34917"},
    "district": "Северо-Западный",
    "name": "Петрозаводск",
    "population": 234897,
    "subject": "Карелия"},
  {"coords": {"lat": "55.42972", "lon": "37.54444"},
    "district": "Центральный",
    "name": "Подольск",
    "population": 314934,
    "subject": "Московская область"},
  {"coords": {"lat": "47.24056", "lon": "39.71056"},
    "district": "Южный",
    "name": "Ростов-на-Дону",
    "population": 1142162,
    "subject": "Ростовская область"},
  {"coords": {"lat": "54.61667", "lon": "39.71667"},
    "district": "Центральный",
    "name": "Рязань",
    "population": 528599,
    "subject": "Рязанская область"},
  {"coords": {"lat": "53.18333", "lon": "50.11667"},
    "district": "Приволжский",
    "name": "Самара",
    "population": 1173299,
    "subject": "Самарская область"},
  {"coords": {"lat": "59.95", "lon": "30.31667"},
    "district": "Северо-Западный",
    "name": "Санкт-Петербург",
    "population": 5601911,
    "subject": "Санкт-Петербург"},
  {"coords": {"lat": "54.18333", "lon": "45.18333"},
    "district": "Приволжский",
    "name": "Саранск",
    "population": 314871,
    "subject": "Мордовия"},
  {"coords": {"lat": "51.53333", "lon": "46"},
    "district": "Приволжский",
    "name": "Саратов",
    "population": 901361,
    "subject": "Саратовская область"},
  {"coords": {"lat": "54.78278", "lon": "32.04528"},
    "district": "Центральный",
    "name": "Смоленск",
    "population": 316570,
    "subject": "Смоленская область"},
  {"coords": {"lat": "43.58528", "lon": "39.72028"},
    "district": "Южный",
    "name": "Сочи",
    "population": 466078,
    "subject": "Краснодарский край"},
  {"coords": {"lat": "45.03333", "lon": "41.96667"},
    "district": "Северо-Кавказский",
    "name": "Ставрополь",
    "population": 547443,
    "subject": "Ставропольский край"},
  {"coords": {"lat": "51.29806", "lon": "37.835"},
    "district": "Центральный",
    "name": "Старый Оскол",
    "population": 221676,
    "subject": "Белгородская область"},
  {"coords": {"lat": "53.63333", "lon": "55.95"},
    "district": "Приволжский",
    "name": "Стерлитамак",
    "population": 277410,
    "subject": "Башкортостан"},
  {"coords": {"lat": "61.25", "lon": "73.43333"},
    "district": "Уральский",
    "name": "Сургут",
    "population": 396443,
    "subject": "Ханты-Мансийский АО"},
  {"coords": {"lat": "61.66667", "lon": "50.81667"},
    "district": "Северо-Западный",
    "name": "Сыктывкар",
    "population": 220580,
    "subject": "Коми"},
  {"coords": {"lat": "47.23917", "lon": "38.88333"},
    "district": "Южный",
    "name": "Таганрог",
    "population": 245120,
    "subject": "Ростовская область"},
  {"coords": {"lat": "52.71667", "lon": "41.43333"},
    "district": "Центральный",
    "name": "Тамбов",
    "population": 261803,
    "subject": "Тамбовская область"},
  {"coords": {"lat": "56.8578278", "lon": "35.9219278"},
    "district": "Центральный",
    "name": "Тверь",
    "population": 416219,
    "subject": "Тверская область"},
  {"coords": {"lat": "53.516666666667", "lon": "49.416666666667"},
    "district": "Приволжский",
    "name": "Тольятти",
    "population": 684709,
    "subject": "Самарская область"},
  {"coords": {"lat": "56.48861", "lon": "84.95222"},
    "district": "Сибирский",
    "name": "Томск",
    "population": 556478,
    "subject": "Томская область"},
  {"coords": {"lat": "54.2", "lon": "37.61667"},
    "district": "Центральный",
    "name": "Тула",
    "population": 473622,
    "subject": "Тульская область"},
  {"coords": {"lat": "57.15", "lon": "65.53333"},
    "district": "Уральский",
    "name": "Тюмень",
    "population": 847488,
    "subject": "Тюменская область"},
  {"coords": {"lat": "51.83333", "lon": "107.61667"},
    "district": "Сибирский",
    "name": "Улан-Удэ",
    "population": 437565,
    "subject": "Бурятия"},
  {"coords": {"lat": "54.316666666667", "lon": "48.366666666667"},
    "district": "Приволжский",
    "name": "Ульяновск",
    "population": 617352,
    "subject": "Ульяновская область"},
  {"coords": {"lat": "54.73333", "lon": "55.96667"},
    "district": "Приволжский",
    "name": "Уфа",
    "population": 1144809,
    "subject": "Башкортостан"},
  {"coords": {"lat": "48.48333", "lon": "135.06667"},
    "district": "Дальневосточный",
    "name": "Хабаровск",
    "population": 617441,
    "subject": "Хабаровский край"},
  {"coords": {"lat": "55.88917", "lon": "37.445"},
    "district": "Центральный",
    "name": "Химки",
    "population": 257128,
    "subject": "Московская область"},
  {"coords": {"lat": "56.11667", "lon": "47.23333"},
    "district": "Приволжский",
    "name": "Чебоксары",
    "population": 497807,
    "subject": "Чувашия"},
  {"coords": {"lat": "55.15", "lon": "61.4"},
    "district": "Уральский",
    "name": "Челябинск",
    "population": 1189525,
    "subject": "Челябинская область"},
  {"coords": {"lat": "59.11667", "lon": "37.9"},
    "district": "Северо-Западный",
    "name": "Череповец",
    "population": 305185,
    "subject": "Вологодская область"},
  {"coords": {"lat": "52.03333", "lon": "113.5"},
    "district": "Сибирский",
    "name": "Чита",
    "population": 334427,
    "subject": "Забайкальский край"},
  {"coords": {"lat": "47.7122111", "lon": "40.2083694"},
    "district": "Южный",
    "name": "Шахты",
    "population": 226452,
    "subject": "Ростовская область"},
  {"coords": {"lat": "51.46667", "lon": "46.11667"},
    "district": "Приволжский",
    "name": "Энгельс",
    "population": 225428,
    "subject": "Саратовская область"},
  {"coords": {"lat": "62.027222222222", "lon": "129.73194444444"},
    "district": "Дальневосточный",
    "name": "Якутск",
    "population": 355443,
    "subject": "Якутия"},
  {"coords": {"lat": "57.61667", "lon": "39.85"},
    "district": "Центральный",
    "name": "Ярославль",
    "population": 577279,
    "subject": "Ярославская область"}]}